[
  {
    "stop_id": 70011,
    "stop_code": 70011,
    "stop_name": "San Francisco Caltrain",
    "stop_lat": 37.77639,
    "stop_lon": -122.394992,
    "zone_id": 1,
    "stop_url": "http://www.caltrain.com/stations/sanfranciscostation.html",
    "location_type": 0,
    "parent_station": "ctsf",
    "platform_code": "NB",
    "wheelchair_boarding": 1
  },
  {
    "stop_id": 70012,
    "stop_code": 70012,
    "stop_name": "San Francisco Caltrain",
    "stop_lat": 37.776348,
    "stop_lon": -122.394935,
    "zone_id": 1,
    "stop_url": "http://www.caltrain.com/stations/sanfranciscostation.html",
    "location_type": 0,
    "parent_station": "ctsf",
    "platform_code": "SB",
    "wheelchair_boarding": 1
  },
  {
    "stop_id": 70021,
    "stop_code": 70021,
    "stop_name": "22nd St Caltrain",
    "stop_lat": 37.757599,
    "stop_lon": -122.39188,
    "zone_id": 1,
    "stop_url": "http://www.caltrain.com/stations/22ndstreetstation.html",
    "location_type": 0,
    "parent_station": "ct22",
    "platform_code": "NB",
    "wheelchair_boarding": 2
  },
  {
    "stop_id": 70022,
    "stop_code": 70022,
    "stop_name": "22nd St Caltrain",
    "stop_lat": 37.757583,
    "stop_lon": -122.392404,
    "zone_id": 1,
    "stop_url": "http://www.caltrain.com/stations/22ndstreetstation.html",
    "location_type": 0,
    "parent_station": "ct22",
    "platform_code": "SB",
    "wheelchair_boarding": 2
  },
  {
    "stop_id": 70031,
    "stop_code": 70031,
    "stop_name": "Bayshore Caltrain",
    "stop_lat": 37.709537,
    "stop_lon": -122.401586,
    "zone_id": 1,
    "stop_url": "http://www.caltrain.com/stations/bayshorestation.html",
    "location_type": 0,
    "parent_station": "ctba",
    "platform_code": "NB",
    "wheelchair_boarding": 1
  },
  {
    "stop_id": 70032,
    "stop_code": 70032,
    "stop_name": "Bayshore Caltrain",
    "stop_lat": 37.709544,
    "stop_lon": -122.40198,
    "zone_id": 1,
    "stop_url": "http://www.caltrain.com/stations/bayshorestation.html",
    "location_type": 0,
    "parent_station": "ctba",
    "platform_code": "SB",
    "wheelchair_boarding": 1
  },
  {
    "stop_id": 70041,
    "stop_code": 70041,
    "stop_name": "So. San Francisco Caltrain Station",
    "stop_lat": 37.65589,
    "stop_lon": -122.40487,
    "zone_id": 1,
    "stop_url": "http://www.caltrain.com/stations/southsanfranciscostation.html",
    "location_type": 0,
    "parent_station": "ctssf",
    "platform_code": "NB",
    "wheelchair_boarding": 2
  },
  {
    "stop_id": 70042,
    "stop_code": 70042,
    "stop_name": "So. San Francisco Caltrain Station",
    "stop_lat": 37.655946,
    "stop_lon": -122.405018,
    "zone_id": 1,
    "stop_url": "http://www.caltrain.com/stations/southsanfranciscostation.html",
    "location_type": 0,
    "parent_station": "ctssf",
    "platform_code": "SB",
    "wheelchair_boarding": 2
  },
  {
    "stop_id": 70051,
    "stop_code": 70051,
    "stop_name": "San Bruno Caltrain",
    "stop_lat": 37.631128,
    "stop_lon": -122.411968,
    "zone_id": 1,
    "stop_url": "http://www.caltrain.com/stations/sanbrunostation.html",
    "location_type": 0,
    "parent_station": "ctsb",
    "platform_code": "NB",
    "wheelchair_boarding": 1
  },
  {
    "stop_id": 70052,
    "stop_code": 70052,
    "stop_name": "San Bruno Caltrain",
    "stop_lat": 37.631108,
    "stop_lon": -122.412076,
    "zone_id": 1,
    "stop_url": "http://www.caltrain.com/stations/sanbrunostation.html",
    "location_type": 0,
    "parent_station": "ctsb",
    "platform_code": "SB",
    "wheelchair_boarding": 1
  },
  {
    "stop_id": 70061,
    "stop_code": 70061,
    "stop_name": "Millbrae Caltrain",
    "stop_lat": 37.59988,
    "stop_lon": -122.386647,
    "zone_id": 2,
    "stop_url": "http://www.caltrain.com/stations/millbraetransitcenter.html",
    "location_type": 0,
    "parent_station": "ctmi",
    "platform_code": "NB",
    "wheelchair_boarding": 1
  },
  {
    "stop_id": 70062,
    "stop_code": 70062,
    "stop_name": "Millbrae Caltrain",
    "stop_lat": 37.599797,
    "stop_lon": -122.386832,
    "zone_id": 2,
    "stop_url": "http://www.caltrain.com/stations/millbraetransitcenter.html",
    "location_type": 0,
    "parent_station": "ctmi",
    "platform_code": "SB",
    "wheelchair_boarding": 1
  },
  {
    "stop_id": 70071,
    "stop_code": 70071,
    "stop_name": "Broadway Caltrain",
    "stop_lat": 37.58764,
    "stop_lon": -122.36265,
    "zone_id": 2,
    "stop_url": "http://www.caltrain.com/stations/broadwaystation.html",
    "location_type": 0,
    "parent_station": "ctbr",
    "platform_code": "NB",
    "wheelchair_boarding": 2
  },
  {
    "stop_id": 70072,
    "stop_code": 70072,
    "stop_name": "Broadway Caltrain",
    "stop_lat": 37.587552,
    "stop_lon": -122.362708,
    "zone_id": 2,
    "stop_url": "http://www.caltrain.com/stations/broadwaystation.html",
    "location_type": 0,
    "parent_station": "ctbr",
    "platform_code": "SB",
    "wheelchair_boarding": 2
  },
  {
    "stop_id": 70081,
    "stop_code": 70081,
    "stop_name": "Burlingame Caltrain",
    "stop_lat": 37.580197,
    "stop_lon": -122.3449,
    "zone_id": 2,
    "stop_url": "http://www.caltrain.com/stations/burlingamestation.html",
    "location_type": 0,
    "parent_station": "ctbu",
    "platform_code": "NB",
    "wheelchair_boarding": 1
  },
  {
    "stop_id": 70082,
    "stop_code": 70082,
    "stop_name": "Burlingame Caltrain",
    "stop_lat": 37.580186,
    "stop_lon": -122.345075,
    "zone_id": 2,
    "stop_url": "http://www.caltrain.com/stations/burlingamestation.html",
    "location_type": 0,
    "parent_station": "ctbu",
    "platform_code": "SB",
    "wheelchair_boarding": 1
  },
  {
    "stop_id": 70091,
    "stop_code": 70091,
    "stop_name": "San Mateo Caltrain",
    "stop_lat": 37.568087,
    "stop_lon": -122.323851,
    "zone_id": 2,
    "stop_url": "http://www.caltrain.com/stations/sanmateostation.html",
    "location_type": 0,
    "parent_station": "ctsmat",
    "platform_code": "NB",
    "wheelchair_boarding": 1
  },
  {
    "stop_id": 70092,
    "stop_code": 70092,
    "stop_name": "San Mateo Caltrain",
    "stop_lat": 37.568294,
    "stop_lon": -122.324092,
    "zone_id": 2,
    "stop_url": "http://www.caltrain.com/stations/sanmateostation.html",
    "location_type": 0,
    "parent_station": "ctsmat",
    "platform_code": "SB",
    "wheelchair_boarding": 1
  },
  {
    "stop_id": 70101,
    "stop_code": 70101,
    "stop_name": "Hayward Park Caltrain",
    "stop_lat": 37.552938,
    "stop_lon": -122.309338,
    "zone_id": 2,
    "stop_url": "http://www.caltrain.com/stations/haywardparkstation.html",
    "location_type": 0,
    "parent_station": "ctha",
    "platform_code": "NB",
    "wheelchair_boarding": 1
  },
  {
    "stop_id": 70102,
    "stop_code": 70102,
    "stop_name": "Hayward Park Caltrain",
    "stop_lat": 37.552994,
    "stop_lon": -122.309608,
    "zone_id": 2,
    "stop_url": "http://www.caltrain.com/stations/haywardparkstation.html",
    "location_type": 0,
    "parent_station": "ctha",
    "platform_code": "SB",
    "wheelchair_boarding": 1
  },
  {
    "stop_id": 70111,
    "stop_code": 70111,
    "stop_name": "Hillsdale Caltrain",
    "stop_lat": 37.537868,
    "stop_lon": -122.297349,
    "zone_id": 2,
    "stop_url": "http://www.caltrain.com/stations/hillsdalestation.html",
    "location_type": 0,
    "parent_station": "cthi",
    "platform_code": "NB",
    "wheelchair_boarding": 1
  },
  {
    "stop_id": 70112,
    "stop_code": 70112,
    "stop_name": "Hillsdale Caltrain",
    "stop_lat": 37.537814,
    "stop_lon": -122.297461,
    "zone_id": 2,
    "stop_url": "http://www.caltrain.com/stations/hillsdalestation.html",
    "location_type": 0,
    "parent_station": "cthi",
    "platform_code": "SB",
    "wheelchair_boarding": 1
  },
  {
    "stop_id": 70121,
    "stop_code": 70121,
    "stop_name": "Belmont Caltrain",
    "stop_lat": 37.52089,
    "stop_lon": -122.275738,
    "zone_id": 2,
    "stop_url": "http://www.caltrain.com/stations/belmontstation.html",
    "location_type": 0,
    "parent_station": "ctbe",
    "platform_code": "NB",
    "wheelchair_boarding": 1
  },
  {
    "stop_id": 70122,
    "stop_code": 70122,
    "stop_name": "Belmont Caltrain",
    "stop_lat": 37.520844,
    "stop_lon": -122.275816,
    "zone_id": 2,
    "stop_url": "http://www.caltrain.com/stations/belmontstation.html",
    "location_type": 0,
    "parent_station": "ctbe",
    "platform_code": "SB",
    "wheelchair_boarding": 1
  },
  {
    "stop_id": 70131,
    "stop_code": 70131,
    "stop_name": "San Carlos Caltrain",
    "stop_lat": 37.50805,
    "stop_lon": -122.26015,
    "zone_id": 2,
    "stop_url": "http://www.caltrain.com/stations/sancarlosstation.html",
    "location_type": 0,
    "parent_station": "ctsc",
    "platform_code": "NB",
    "wheelchair_boarding": 1
  },
  {
    "stop_id": 70132,
    "stop_code": 70132,
    "stop_name": "San Carlos Caltrain",
    "stop_lat": 37.507933,
    "stop_lon": -122.260266,
    "zone_id": 2,
    "stop_url": "http://www.caltrain.com/stations/sancarlosstation.html",
    "location_type": 0,
    "parent_station": "ctsc",
    "platform_code": "SB",
    "wheelchair_boarding": 1
  },
  {
    "stop_id": 70141,
    "stop_code": 70141,
    "stop_name": "Redwood City Caltrain",
    "stop_lat": 37.486159,
    "stop_lon": -122.231936,
    "zone_id": 2,
    "stop_url": "http://www.caltrain.com/stations/redwoodcitystation.html",
    "location_type": 0,
    "parent_station": "ctrwc",
    "platform_code": "NB",
    "wheelchair_boarding": 1
  },
  {
    "stop_id": 70142,
    "stop_code": 70142,
    "stop_name": "Redwood City Caltrain",
    "stop_lat": 37.486101,
    "stop_lon": -122.232,
    "zone_id": 2,
    "stop_url": "http://www.caltrain.com/stations/redwoodcitystation.html",
    "location_type": 0,
    "parent_station": "ctrwc",
    "platform_code": "SB",
    "wheelchair_boarding": 1
  },
  {
    "stop_id": 70151,
    "stop_code": 70151,
    "stop_name": "Atherton Caltrain",
    "stop_lat": 37.464645,
    "stop_lon": -122.19779,
    "zone_id": 3,
    "stop_url": "http://www.caltrain.com/stations/athertonstation.html",
    "location_type": 0,
    "parent_station": "ctat",
    "platform_code": "NB",
    "wheelchair_boarding": 2
  },
  {
    "stop_id": 70152,
    "stop_code": 70152,
    "stop_name": "Atherton Caltrain",
    "stop_lat": 37.464584,
    "stop_lon": -122.197869,
    "zone_id": 3,
    "stop_url": "http://www.caltrain.com/stations/athertonstation.html",
    "location_type": 0,
    "parent_station": "ctat",
    "platform_code": "SB",
    "wheelchair_boarding": 2
  },
  {
    "stop_id": 70161,
    "stop_code": 70161,
    "stop_name": "Menlo Park Caltrain",
    "stop_lat": 37.454856,
    "stop_lon": -122.182297,
    "zone_id": 3,
    "stop_url": "http://www.caltrain.com/stations/menloparkstation.html",
    "location_type": 0,
    "parent_station": "ctmp",
    "platform_code": "NB",
    "wheelchair_boarding": 1
  },
  {
    "stop_id": 70162,
    "stop_code": 70162,
    "stop_name": "Menlo Park Caltrain",
    "stop_lat": 37.454745,
    "stop_lon": -122.182405,
    "zone_id": 3,
    "stop_url": "http://www.caltrain.com/stations/menloparkstation.html",
    "location_type": 0,
    "parent_station": "ctmp",
    "platform_code": "SB",
    "wheelchair_boarding": 1
  },
  {
    "stop_id": 70171,
    "stop_code": 70171,
    "stop_name": "Palo Alto Caltrain",
    "stop_lat": 37.443475,
    "stop_lon": -122.164614,
    "zone_id": 3,
    "stop_url": "http://www.caltrain.com/stations/paloaltostation.html",
    "location_type": 0,
    "parent_station": "ctpa",
    "platform_code": "NB",
    "wheelchair_boarding": 1
  },
  {
    "stop_id": 70172,
    "stop_code": 70172,
    "stop_name": "Palo Alto Caltrain",
    "stop_lat": 37.443405,
    "stop_lon": -122.164697,
    "zone_id": 3,
    "stop_url": "http://www.caltrain.com/stations/paloaltostation.html",
    "location_type": 0,
    "parent_station": "ctpa",
    "platform_code": "SB",
    "wheelchair_boarding": 1
  },
  {
    "stop_id": 70191,
    "stop_code": 70191,
    "stop_name": "California Ave Caltrain",
    "stop_lat": 37.429365,
    "stop_lon": -122.141927,
    "zone_id": 3,
    "stop_url": "http://www.caltrain.com/stations/californiaavenuestation.html",
    "location_type": 0,
    "parent_station": "ctca",
    "platform_code": "NB",
    "wheelchair_boarding": 1
  },
  {
    "stop_id": 70192,
    "stop_code": 70192,
    "stop_name": "California Ave Caltrain",
    "stop_lat": 37.429333,
    "stop_lon": -122.141978,
    "zone_id": 3,
    "stop_url": "http://www.caltrain.com/stations/californiaavenuestation.html",
    "location_type": 0,
    "parent_station": "ctca",
    "platform_code": "SB",
    "wheelchair_boarding": 1
  },
  {
    "stop_id": 70201,
    "stop_code": 70201,
    "stop_name": "San Antonio Caltrain",
    "stop_lat": 37.407323,
    "stop_lon": -122.107069,
    "zone_id": 3,
    "stop_url": "http://www.caltrain.com/stations/sanantoniostation.html",
    "location_type": 0,
    "parent_station": "ctsa",
    "platform_code": "NB",
    "wheelchair_boarding": 1
  },
  {
    "stop_id": 70202,
    "stop_code": 70202,
    "stop_name": "San Antonio Caltrain",
    "stop_lat": 37.407277,
    "stop_lon": -122.107125,
    "zone_id": 3,
    "stop_url": "http://www.caltrain.com/stations/sanantoniostation.html",
    "location_type": 0,
    "parent_station": "ctsa",
    "platform_code": "SB",
    "wheelchair_boarding": 1
  },
  {
    "stop_id": 70211,
    "stop_code": 70211,
    "stop_name": "Mt View Caltrain",
    "stop_lat": 37.394459,
    "stop_lon": -122.075956,
    "zone_id": 3,
    "stop_url": "http://www.caltrain.com/stations/mountainviewstation.html",
    "location_type": 0,
    "parent_station": "ctmv",
    "platform_code": "NB",
    "wheelchair_boarding": 1
  },
  {
    "stop_id": 70212,
    "stop_code": 70212,
    "stop_name": "Mt View Caltrain",
    "stop_lat": 37.394402,
    "stop_lon": -122.075994,
    "zone_id": 3,
    "stop_url": "http://www.caltrain.com/stations/mountainviewstation.html",
    "location_type": 0,
    "parent_station": "ctmv",
    "platform_code": "SB",
    "wheelchair_boarding": 1
  },
  {
    "stop_id": 70221,
    "stop_code": 70221,
    "stop_name": "Sunnyvale Caltrain",
    "stop_lat": 37.378916,
    "stop_lon": -122.031372,
    "zone_id": 3,
    "stop_url": "http://www.caltrain.com/stations/sunnyvalestation.html",
    "location_type": 0,
    "parent_station": "ctsu",
    "platform_code": "NB",
    "wheelchair_boarding": 1
  },
  {
    "stop_id": 70222,
    "stop_code": 70222,
    "stop_name": "Sunnyvale Caltrain",
    "stop_lat": 37.378789,
    "stop_lon": -122.031423,
    "zone_id": 3,
    "stop_url": "http://www.caltrain.com/stations/sunnyvalestation.html",
    "location_type": 0,
    "parent_station": "ctsu",
    "platform_code": "SB",
    "wheelchair_boarding": 1
  },
  {
    "stop_id": 70231,
    "stop_code": 70231,
    "stop_name": "Lawrence Caltrain",
    "stop_lat": 37.370598,
    "stop_lon": -121.997114,
    "zone_id": 4,
    "stop_url": "http://www.caltrain.com/stations/lawrencestation.html",
    "location_type": 0,
    "parent_station": "ctla",
    "platform_code": "NB",
    "wheelchair_boarding": 1
  },
  {
    "stop_id": 70232,
    "stop_code": 70232,
    "stop_name": "Lawrence Caltrain",
    "stop_lat": 37.370484,
    "stop_lon": -121.997135,
    "zone_id": 4,
    "stop_url": "http://www.caltrain.com/stations/lawrencestation.html",
    "location_type": 0,
    "parent_station": "ctla",
    "platform_code": "SB",
    "wheelchair_boarding": 1
  },
  {
    "stop_id": 70241,
    "stop_code": 70241,
    "stop_name": "Santa Clara Caltrain",
    "stop_lat": 37.353238,
    "stop_lon": -121.93608,
    "zone_id": 4,
    "stop_url": "http://www.caltrain.com/stations/santaclarastation.html",
    "location_type": 0,
    "parent_station": "ctscl",
    "platform_code": "NB",
    "wheelchair_boarding": 1
  },
  {
    "stop_id": 70242,
    "stop_code": 70242,
    "stop_name": "Santa Clara Caltrain",
    "stop_lat": 37.353189,
    "stop_lon": -121.936135,
    "zone_id": 4,
    "stop_url": "http://www.caltrain.com/stations/santaclarastation.html",
    "location_type": 0,
    "parent_station": "ctscl",
    "platform_code": "SB",
    "wheelchair_boarding": 1
  },
  {
    "stop_id": 70251,
    "stop_code": 70251,
    "stop_name": "College Park Caltrain",
    "stop_lat": 37.342384,
    "stop_lon": -121.9146,
    "zone_id": 4,
    "stop_url": "http://www.caltrain.com/stations/collegeparkstation.html",
    "location_type": 0,
    "parent_station": "ctco",
    "platform_code": "NB",
    "wheelchair_boarding": 2
  },
  {
    "stop_id": 70252,
    "stop_code": 70252,
    "stop_name": "College Park Caltrain",
    "stop_lat": 37.342338,
    "stop_lon": -121.914677,
    "zone_id": 4,
    "stop_url": "http://www.caltrain.com/stations/collegeparkstation.html",
    "location_type": 0,
    "parent_station": "ctco",
    "platform_code": "SB",
    "wheelchair_boarding": 2
  },
  {
    "stop_id": 70261,
    "stop_code": 70261,
    "stop_name": "San Jose Diridon Caltrain",
    "stop_lat": 37.329239,
    "stop_lon": -121.903011,
    "zone_id": 4,
    "stop_url": "http://www.caltrain.com/stations/sanjosediridonstation.html",
    "location_type": 0,
    "parent_station": "ctsj",
    "platform_code": "NB",
    "wheelchair_boarding": 1
  },
  {
    "stop_id": 70262,
    "stop_code": 70262,
    "stop_name": "San Jose Diridon Caltrain",
    "stop_lat": 37.329231,
    "stop_lon": -121.903173,
    "zone_id": 4,
    "stop_url": "http://www.caltrain.com/stations/sanjosediridonstation.html",
    "location_type": 0,
    "parent_station": "ctsj",
    "platform_code": "SB",
    "wheelchair_boarding": 1
  },
  {
    "stop_id": 70271,
    "stop_code": 70271,
    "stop_name": "Tamien Caltrain",
    "stop_lat": 37.31174,
    "stop_lon": -121.883721,
    "zone_id": 4,
    "stop_url": "http://www.caltrain.com/stations/tamienstation.html",
    "location_type": 0,
    "parent_station": "ctta",
    "platform_code": "NB",
    "wheelchair_boarding": 1
  },
  {
    "stop_id": 70272,
    "stop_code": 70272,
    "stop_name": "Tamien Caltrain",
    "stop_lat": 37.31175,
    "stop_lon": -121.883999,
    "zone_id": 4,
    "stop_url": "http://www.caltrain.com/stations/tamienstation.html",
    "location_type": 0,
    "parent_station": "ctta",
    "platform_code": "SB",
    "wheelchair_boarding": 1
  },
  {
    "stop_id": 70281,
    "stop_code": 70281,
    "stop_name": "Capitol Caltrain",
    "stop_lat": 37.284102,
    "stop_lon": -121.841955,
    "zone_id": 5,
    "stop_url": "http://www.caltrain.com/stations/capitolstation.html",
    "location_type": 0,
    "parent_station": "ctcap",
    "platform_code": "NB",
    "wheelchair_boarding": 1
  },
  {
    "stop_id": 70282,
    "stop_code": 70282,
    "stop_name": "Capitol Caltrain",
    "stop_lat": 37.284062,
    "stop_lon": -121.842037,
    "zone_id": 5,
    "stop_url": "http://www.caltrain.com/stations/capitolstation.html",
    "location_type": 0,
    "parent_station": "ctcap",
    "platform_code": "SB",
    "wheelchair_boarding": 1
  },
  {
    "stop_id": 70291,
    "stop_code": 70291,
    "stop_name": "Blossom Hill Caltrain",
    "stop_lat": 37.252422,
    "stop_lon": -121.797643,
    "zone_id": 5,
    "stop_url": "http://www.caltrain.com/stations/blossomhillstation.html",
    "location_type": 0,
    "parent_station": "ctbl",
    "platform_code": "NB",
    "wheelchair_boarding": 1
  },
  {
    "stop_id": 70292,
    "stop_code": 70292,
    "stop_name": "Blossom Hill Caltrain",
    "stop_lat": 37.252379,
    "stop_lon": -121.797683,
    "zone_id": 5,
    "stop_url": "http://www.caltrain.com/stations/blossomhillstation.html",
    "location_type": 0,
    "parent_station": "ctbl",
    "platform_code": "SB",
    "wheelchair_boarding": 1
  },
  {
    "stop_id": 70301,
    "stop_code": 70301,
    "stop_name": "Morgan Hill Caltrain",
    "stop_lat": 37.129363,
    "stop_lon": -121.650244,
    "zone_id": 6,
    "stop_url": "http://www.caltrain.com/stations/morganhillstation.html",
    "location_type": 0,
    "parent_station": "ctmh",
    "platform_code": "NB",
    "wheelchair_boarding": 1
  },
  {
    "stop_id": 70302,
    "stop_code": 70302,
    "stop_name": "Morgan Hill Caltrain",
    "stop_lat": 37.129321,
    "stop_lon": -121.650304,
    "zone_id": 6,
    "stop_url": "http://www.caltrain.com/stations/morganhillstation.html",
    "location_type": 0,
    "parent_station": "ctmh",
    "platform_code": "SB",
    "wheelchair_boarding": 1
  },
  {
    "stop_id": 70311,
    "stop_code": 70311,
    "stop_name": "San Martin Caltrain",
    "stop_lat": 37.085225,
    "stop_lon": -121.610049,
    "zone_id": 6,
    "stop_url": "http://www.caltrain.com/stations/sanmartinstation.html",
    "location_type": 0,
    "parent_station": "ctsmar",
    "platform_code": "NB",
    "wheelchair_boarding": 1
  },
  {
    "stop_id": 70312,
    "stop_code": 70312,
    "stop_name": "San Martin Caltrain",
    "stop_lat": 37.086653,
    "stop_lon": -121.610936,
    "zone_id": 6,
    "stop_url": "http://www.caltrain.com/stations/sanmartinstation.html",
    "location_type": 0,
    "parent_station": "ctsmar",
    "platform_code": "SB",
    "wheelchair_boarding": 1
  },
  {
    "stop_id": 70321,
    "stop_code": 70321,
    "stop_name": "Gilroy Caltrain",
    "stop_lat": 37.003538,
    "stop_lon": -121.566088,
    "zone_id": 6,
    "stop_url": "http://www.caltrain.com/stations/gilroystation.html",
    "location_type": 0,
    "parent_station": "ctgi",
    "platform_code": "NB",
    "wheelchair_boarding": 1
  },
  {
    "stop_id": 70322,
    "stop_code": 70322,
    "stop_name": "Gilroy Caltrain",
    "stop_lat": 37.003485,
    "stop_lon": -121.566225,
    "zone_id": 6,
    "stop_url": "http://www.caltrain.com/stations/gilroystation.html",
    "location_type": 0,
    "parent_station": "ctgi",
    "platform_code": "SB",
    "wheelchair_boarding": 1
  },
  {
    "stop_id": 777402,
    "stop_code": 777402,
    "stop_name": "San Jose Caltrain Station",
    "stop_lat": 37.330196,
    "stop_lon": -121.901985,
    "zone_id": 4,
    "stop_url": "http://www.caltrain.com/stations/sanjosediridonstation.html",
    "location_type": 0,
    "parent_station": "ctsj",
    "platform_code": 0,
    "wheelchair_boarding": 1
  },
  {
    "stop_id": 777403,
    "stop_code": 777403,
    "stop_name": "Tamien Caltrain Station",
    "stop_lat": 37.311638,
    "stop_lon": -121.883403,
    "zone_id": 4,
    "stop_url": "http://www.caltrain.com/stations/tamienstation.html",
    "location_type": 0,
    "parent_station": "ctta",
    "platform_code": 0,
    "wheelchair_boarding": 1
  },
  {
    "stop_id": "ctsf",
    "stop_code": 0,
    "stop_name": "San Francisco Caltrain",
    "stop_lat": 37.776439,
    "stop_lon": -122.394323,
    "zone_id": 0,
    "stop_url": "http://www.caltrain.com/stations/sanfranciscostation.html",
    "location_type": 1,
    "parent_station": 0,
    "platform_code": 0,
    "wheelchair_boarding": 1
  },
  {
    "stop_id": "ct22",
    "stop_code": 0,
    "stop_name": "22nd St Caltrain",
    "stop_lat": 37.757674,
    "stop_lon": -122.392636,
    "zone_id": 0,
    "stop_url": "http://www.caltrain.com/stations/22ndstreetstation.html",
    "location_type": 1,
    "parent_station": 0,
    "platform_code": 0,
    "wheelchair_boarding": 2
  },
  {
    "stop_id": "ctba",
    "stop_code": 0,
    "stop_name": "Bayshore Caltrain",
    "stop_lat": 37.709544,
    "stop_lon": -122.401318,
    "zone_id": 0,
    "stop_url": "http://www.caltrain.com/stations/bayshorestation.html",
    "location_type": 1,
    "parent_station": 0,
    "platform_code": 0,
    "wheelchair_boarding": 1
  },
  {
    "stop_id": "ctssf",
    "stop_code": 0,
    "stop_name": "So. San Francisco Caltrain Station",
    "stop_lat": 37.655852,
    "stop_lon": -122.405429,
    "zone_id": 0,
    "stop_url": "http://www.caltrain.com/stations/southsanfranciscostation.html",
    "location_type": 1,
    "parent_station": 0,
    "platform_code": 0,
    "wheelchair_boarding": 2
  },
  {
    "stop_id": "ctsb",
    "stop_code": 0,
    "stop_name": "San Bruno Caltrain",
    "stop_lat": 37.631106,
    "stop_lon": -122.412018,
    "zone_id": 0,
    "stop_url": "http://www.caltrain.com/stations/sanbrunostation.html",
    "location_type": 1,
    "parent_station": 0,
    "platform_code": 0,
    "wheelchair_boarding": 1
  },
  {
    "stop_id": "ctmi",
    "stop_code": 0,
    "stop_name": "Millbrae Caltrain",
    "stop_lat": 37.600006,
    "stop_lon": -122.386534,
    "zone_id": 0,
    "stop_url": "http://www.caltrain.com/stations/millbraetransitcenter.html",
    "location_type": 1,
    "parent_station": 0,
    "platform_code": 0,
    "wheelchair_boarding": 1
  },
  {
    "stop_id": "ctbr",
    "stop_code": 0,
    "stop_name": "Broadway Caltrain",
    "stop_lat": 37.587466,
    "stop_lon": -122.363233,
    "zone_id": 0,
    "stop_url": "http://www.caltrain.com/stations/broadwaystation.html",
    "location_type": 1,
    "parent_station": 0,
    "platform_code": 0,
    "wheelchair_boarding": 2
  },
  {
    "stop_id": "ctbu",
    "stop_code": 0,
    "stop_name": "Burlingame Caltrain",
    "stop_lat": 37.579719,
    "stop_lon": -122.345266,
    "zone_id": 0,
    "stop_url": "http://www.caltrain.com/stations/burlingamestation.html",
    "location_type": 1,
    "parent_station": 0,
    "platform_code": 0,
    "wheelchair_boarding": 1
  },
  {
    "stop_id": "ctsmat",
    "stop_code": 0,
    "stop_name": "San Mateo Caltrain",
    "stop_lat": 37.568209,
    "stop_lon": -122.323933,
    "zone_id": 0,
    "stop_url": "http://www.caltrain.com/stations/sanmateostation.html",
    "location_type": 1,
    "parent_station": 0,
    "platform_code": 0,
    "wheelchair_boarding": 1
  },
  {
    "stop_id": "ctha",
    "stop_code": 0,
    "stop_name": "Hayward Park Caltrain",
    "stop_lat": 37.552346,
    "stop_lon": -122.308916,
    "zone_id": 0,
    "stop_url": "http://www.caltrain.com/stations/haywardparkstation.html",
    "location_type": 1,
    "parent_station": 0,
    "platform_code": 0,
    "wheelchair_boarding": 1
  },
  {
    "stop_id": "cthi",
    "stop_code": 0,
    "stop_name": "Hillsdale Caltrain",
    "stop_lat": 37.537503,
    "stop_lon": -122.298001,
    "zone_id": 0,
    "stop_url": "http://www.caltrain.com/stations/hillsdalestation.html",
    "location_type": 1,
    "parent_station": 0,
    "platform_code": 0,
    "wheelchair_boarding": 1
  },
  {
    "stop_id": "ctbe",
    "stop_code": 0,
    "stop_name": "Belmont Caltrain",
    "stop_lat": 37.520504,
    "stop_lon": -122.276075,
    "zone_id": 0,
    "stop_url": "http://www.caltrain.com/stations/belmontstation.html",
    "location_type": 1,
    "parent_station": 0,
    "platform_code": 0,
    "wheelchair_boarding": 1
  },
  {
    "stop_id": "ctsc",
    "stop_code": 0,
    "stop_name": "San Carlos Caltrain",
    "stop_lat": 37.507361,
    "stop_lon": -122.260365,
    "zone_id": 0,
    "stop_url": "http://www.caltrain.com/stations/sancarlosstation.html",
    "location_type": 1,
    "parent_station": 0,
    "platform_code": 0,
    "wheelchair_boarding": 1
  },
  {
    "stop_id": "ctrwc",
    "stop_code": 0,
    "stop_name": "Redwood City Caltrain",
    "stop_lat": 37.485412,
    "stop_lon": -122.231957,
    "zone_id": 0,
    "stop_url": "http://www.caltrain.com/stations/redwoodcitystation.html",
    "location_type": 1,
    "parent_station": 0,
    "platform_code": 0,
    "wheelchair_boarding": 1
  },
  {
    "stop_id": "ctat",
    "stop_code": 0,
    "stop_name": "Atherton Caltrain",
    "stop_lat": 37.464349,
    "stop_lon": -122.198106,
    "zone_id": 0,
    "stop_url": "http://www.caltrain.com/stations/athertonstation.html",
    "location_type": 1,
    "parent_station": 0,
    "platform_code": 0,
    "wheelchair_boarding": 2
  },
  {
    "stop_id": "ctmp",
    "stop_code": 0,
    "stop_name": "Menlo Park Caltrain",
    "stop_lat": 37.454604,
    "stop_lon": -122.182518,
    "zone_id": 0,
    "stop_url": "http://www.caltrain.com/stations/menloparkstation.html",
    "location_type": 1,
    "parent_station": 0,
    "platform_code": 0,
    "wheelchair_boarding": 1
  },
  {
    "stop_id": "ctpa",
    "stop_code": 0,
    "stop_name": "Palo Alto Caltrain",
    "stop_lat": 37.44307,
    "stop_lon": -122.1649,
    "zone_id": 0,
    "stop_url": "http://www.caltrain.com/stations/paloaltostation.html",
    "location_type": 1,
    "parent_station": 0,
    "platform_code": 0,
    "wheelchair_boarding": 1
  },
  {
    "stop_id": "ctca",
    "stop_code": 0,
    "stop_name": "California Ave Caltrain",
    "stop_lat": 37.428835,
    "stop_lon": -122.142703,
    "zone_id": 0,
    "stop_url": "http://www.caltrain.com/stations/californiaavenuestation.html",
    "location_type": 1,
    "parent_station": 0,
    "platform_code": 0,
    "wheelchair_boarding": 1
  },
  {
    "stop_id": "ctsa",
    "stop_code": 0,
    "stop_name": "San Antonio Caltrain",
    "stop_lat": 37.407157,
    "stop_lon": -122.107231,
    "zone_id": 0,
    "stop_url": "http://www.caltrain.com/stations/sanantoniostation.html",
    "location_type": 1,
    "parent_station": 0,
    "platform_code": 0,
    "wheelchair_boarding": 1
  },
  {
    "stop_id": "ctmv",
    "stop_code": 0,
    "stop_name": "Mt View Caltrain",
    "stop_lat": 37.393879,
    "stop_lon": -122.076327,
    "zone_id": 0,
    "stop_url": "http://www.caltrain.com/stations/mountainviewstation.html",
    "location_type": 1,
    "parent_station": 0,
    "platform_code": 0,
    "wheelchair_boarding": 1
  },
  {
    "stop_id": "ctsu",
    "stop_code": 0,
    "stop_name": "Sunnyvale Caltrain",
    "stop_lat": 37.378427,
    "stop_lon": -122.030742,
    "zone_id": 0,
    "stop_url": "http://www.caltrain.com/stations/sunnyvalestation.html",
    "location_type": 1,
    "parent_station": 0,
    "platform_code": 0,
    "wheelchair_boarding": 1
  },
  {
    "stop_id": "ctla",
    "stop_code": 0,
    "stop_name": "Lawrence Caltrain",
    "stop_lat": 37.370815,
    "stop_lon": -121.997258,
    "zone_id": 0,
    "stop_url": "http://www.caltrain.com/stations/lawrencestation.html",
    "location_type": 1,
    "parent_station": 0,
    "platform_code": 0,
    "wheelchair_boarding": 1
  },
  {
    "stop_id": "ctscl",
    "stop_code": 0,
    "stop_name": "Santa Clara Caltrain",
    "stop_lat": 37.352915,
    "stop_lon": -121.936376,
    "zone_id": 0,
    "stop_url": "http://www.caltrain.com/stations/santaclarastation.html",
    "location_type": 1,
    "parent_station": 0,
    "platform_code": 0,
    "wheelchair_boarding": 1
  },
  {
    "stop_id": "ctco",
    "stop_code": 0,
    "stop_name": "College Park Caltrain",
    "stop_lat": 37.34217,
    "stop_lon": -121.914998,
    "zone_id": 0,
    "stop_url": "http://www.caltrain.com/stations/collegeparkstation.html",
    "location_type": 1,
    "parent_station": 0,
    "platform_code": 0,
    "wheelchair_boarding": 2
  },
  {
    "stop_id": "ctsj",
    "stop_code": 0,
    "stop_name": "San Jose Diridon Caltrain",
    "stop_lat": 37.329392,
    "stop_lon": -121.902181,
    "zone_id": 0,
    "stop_url": "http://www.caltrain.com/stations/sanjosediridonstation.html",
    "location_type": 1,
    "parent_station": 0,
    "platform_code": 0,
    "wheelchair_boarding": 1
  },
  {
    "stop_id": "ctta",
    "stop_code": 0,
    "stop_name": "Tamien Caltrain",
    "stop_lat": 37.31164,
    "stop_lon": -121.8839,
    "zone_id": 0,
    "stop_url": "http://www.caltrain.com/stations/tamienstation.html",
    "location_type": 1,
    "parent_station": 0,
    "platform_code": 0,
    "wheelchair_boarding": 1
  },
  {
    "stop_id": "ctcap",
    "stop_code": 0,
    "stop_name": "Capitol Caltrain",
    "stop_lat": 37.284359,
    "stop_lon": -121.841589,
    "zone_id": 0,
    "stop_url": "http://www.caltrain.com/stations/capitolstation.html",
    "location_type": 1,
    "parent_station": 0,
    "platform_code": 0,
    "wheelchair_boarding": 1
  },
  {
    "stop_id": "ctbl",
    "stop_code": 0,
    "stop_name": "Blossom Hill Caltrain",
    "stop_lat": 37.252801,
    "stop_lon": -121.797369,
    "zone_id": 0,
    "stop_url": "http://www.caltrain.com/stations/blossomhillstation.html",
    "location_type": 1,
    "parent_station": 0,
    "platform_code": 0,
    "wheelchair_boarding": 1
  },
  {
    "stop_id": "ctmh",
    "stop_code": 0,
    "stop_name": "Morgan Hill Caltrain",
    "stop_lat": 37.129081,
    "stop_lon": -121.650721,
    "zone_id": 0,
    "stop_url": "http://www.caltrain.com/stations/morganhillstation.html",
    "location_type": 1,
    "parent_station": 0,
    "platform_code": 0,
    "wheelchair_boarding": 1
  },
  {
    "stop_id": "ctsmar",
    "stop_code": 0,
    "stop_name": "San Martin Caltrain",
    "stop_lat": 37.085775,
    "stop_lon": -121.610809,
    "zone_id": 0,
    "stop_url": "http://www.caltrain.com/stations/sanmartinstation.html",
    "location_type": 1,
    "parent_station": 0,
    "platform_code": 0,
    "wheelchair_boarding": 1
  },
  {
    "stop_id": "ctgi",
    "stop_code": 0,
    "stop_name": "Gilroy Caltrain",
    "stop_lat": 37.003606,
    "stop_lon": -121.566497,
    "zone_id": 0,
    "stop_url": "http://www.caltrain.com/stations/gilroystation.html",
    "location_type": 1,
    "parent_station": 0,
    "platform_code": 0,
    "wheelchair_boarding": 1
  }
]